[{"id":0,"name":"bochuongmyyy","districtId":"","rating":0.0,"location":"San tennis 1- Masteri","address":"","views":0,"image":"","hours":"18h:00","days":"2024.08.09","hotline":"0389005199","map":"Hoang#212429"},{"id":0,"name":"nhich","districtId":"","rating":0.0,"location":"Cong vien the thao - Tennis 2","address":"","views":1,"image":"","hours":"18h:00","days":"2024.08.08","hotline":"0902198889","map":"Abc@1234"},{"id":1,"name":"nhich","districtId":"","rating":0.0,"location":"Cong vien the thao - Tennis 2","address":"","views":0,"image":"","hours":"18h:00","days":"2024.08.08","hotline":"0377800999","map":"Nhich2024@"},{"id":2,"name":"khuong","districtId":"","rating":0.0,"location":"Cong vien the thao - Tennis 5","address":"","views":0,"image":"","hours":"18h:00","days":"2024.08.08","hotline":"0987739290","map":"Nam152411&"},{"id":3,"name":"khuong","districtId":"","rating":0.0,"location":"Cong vien the thao - Tennis 3","address":"","views":0,"image":"","hours":"18h:00","days":"2024.08.08","hotline":"0975551366","map":"Loc090418@"},{"id":4,"name":"420","districtId":"","rating":0.0,"location":"S2 - San tennis 01","address":"","views":0,"image":"","hours":"18h:00","days":"2024.08.08","hotline":"0965341357","map":"Tennis@420"},{"id":5,"name":"manhji","districtId":"","rating":0.0,"location":"Cong vien the thao - Tennis 1","address":"","views":0,"image":"","hours":"18h:00","days":"2024.08.08","hotline":"0979899491","map":"Thanh123#@!"},{"id":6,"name":"manhji","districtId":"","rating":0.0,"location":"Cong vien the thao - Tennis 1","address":"","views":1,"image":"","hours":"16h:00","days":"2024.08.08","hotline":"0396740509","map":"Manh@196"},{"id":7,"name":"manhji","districtId":"","rating":0.0,"location":"Cong vien the thao - Tennis 1","address":"","views":0,"image":"","hours":"18h:00","days":"2024.08.08","hotline":"0776106784","map":"Hoang1992@@"},{"id":8,"name":"manhji","districtId":"","rating":0.0,"location":"Cong vien the thao - Tennis 1","address":"","views":0,"image":"","hours":"16h:00","days":"2024.08.08","hotline":"0945966616","map":"Sanbai@234"},{"id":9,"name":"bochuongmyyy","districtId":"","rating":0.0,"location":"San tennis 02- MIK","address":"","views":0,"image":"","hours":"16h:00","days":"2024.08.08","hotline":"0845696668","map":"Abcde12345@@"},{"id":10,"name":"bochuongmyyy","districtId":"","rating":0.0,"location":"San tennis 02- MIK","address":"","views":1,"image":"","hours":"18h:00","days":"2024.08.08","hotline":"0339067548","map":"Kieungoclan0810@&"},{"id":11,"name":"bochuongmyyy","districtId":"","rating":0.0,"location":"San tennis 02- MIK","address":"","views":1,"image":"","hours":"16h:00","days":"2024.08.08","hotline":"0916053583","map":"123456@Qaz"},{"id":12,"name":"bochuongmyyy","districtId":"","rating":0.0,"location":"San tennis 02- MIK","address":"","views":0,"image":"","hours":"18h:00","days":"2024.08.08","hotline":"0917525999","map":"@Thanh85"},{"id":13,"name":"bochuongmyyy","districtId":"","rating":0.0,"location":"San tennis 02- MIK","address":"","views":1,"image":"","hours":"6h:00","days":"2024.08.08","hotline":"0941877222","map":"Thanhbinh@226200"},{"id":14,"name":"bochuongmyyy","districtId":"","rating":0.0,"location":"San tennis 01- MIK","address":"","views":0,"image":"","hours":"6h:00","days":"2024.08.08","hotline":"0976482528","map":"LinhLinh22!"},{"id":15,"name":"bochuongmyyy","districtId":"","rating":0.0,"location":"GS- Tennis 2","address":"","views":1,"image":"","hours":"18h:00","days":"2024.08.08","hotline":"0975726526","map":"Dung-0975726526@"},{"id":16,"name":"bochuongmyyy","districtId":"","rating":0.0,"location":"S2 - San tennis 02","address":"","views":1,"image":"","hours":"18h:00","days":"2024.08.08","hotline":"0829716789","map":"Nguyenkhacthanh*2001"},{"id":17,"name":"bochuongmyyy","districtId":"","rating":0.0,"location":"S2 - San tennis 02","address":"","views":1,"image":"","hours":"20h:00","days":"2024.08.08","hotline":"0989362659","map":"Dieu@0610"}]
